name,description,publisher,datasetId,dataId,prefecture,municipality,updatedAt,lat,lon,bbox,fileUrl
奥平部避難所,,,,2c856aac-e18a-4980-b6af-7cffbd2ad4a5,,,,41.2208037287,140.579000044,,
折戸避難所,,,,769110d8-2b4f-4541-b841-337011ab81dc,,,,41.1138109535,140.299503253,,
口坂本避難所,,,,af0aea62-985e-4446-9808-d9f1ea72c679,,,,35.1842507885,138.275085673,,
瀬野避難所,,,,f14ae4b8-8e25-45c4-b6f8-eae2dcac44ed,,,,32.7357410881,130.364828379,,
向江避難所,,,,1a5e9abc-643e-479d-8254-62db1458f30b,,,,34.1133116437,136.3001596,,
西幸公民会館避難所,,,,b173d6a7-4316-40d7-9e04-7db484b66235,,,,34.97188,133.95986,,
令和6年度［第36‐W8713‐01号］浜名港海岸改修に伴う長寿命化計画策定業務委託（防潮堤・津波避難施設）,,,,6ccfe320-904f-4f65-80ba-973bc4fb0bb1,,,,34.6804,137.5928,,
令和3年度　名古屋国道管内内陸部緊急避難施設検討業務,,,,1bce56ac-6ad0-4114-bbf2-287d49580a39,,,,35.05513888888889,136.95958333333334,,
瀬々野浦地区緊急避難施設,,,,95c98412-b45a-4c9a-a173-d9f312241bc7,,,,31.6885870561,129.694786176,,
長浜地区緊急避難施設,,,,cc5b6b1a-1a59-49a3-b2dd-439bc72cb46b,,,,31.7055778221,129.737672643,,
下折橋町集合避難施設,,,,10dbd15a-fd19-4494-8c75-9573084cbb35,,,,32.7879773338,130.346260101,,
瀬尾地区緊急避難施設,,,,c678529b-014b-4286-adc6-4095235f2040,,,,31.6606815001,129.726271952,,
片野浦地区緊急避難施設,,,,ba6e4641-9f9b-4681-bfcb-3dfa7458b024,,,,31.6613746338,129.682912127,,
大坂本地区避難施設,,,,b1a225e2-9f0d-4a96-8651-d2034019d5f0,,,,32.9791585926,131.849660525,,
新湊町集合避難施設,,,,5ce77db3-f4b7-4392-93b9-deaa0dba13fa,,,,32.7609489119,130.364669473,,
社会資本整備総合交付金事業　南伊勢町2次避難所災害トイレ・耐震性貯水槽地質調査業務委託,,,,32cdee0f-7efa-47b4-a04a-1e016155f2c5,,,,34.297219444444,136.69279444444,,
社会資本整備総合交付金事業　南伊勢町2次避難所災害トイレ・耐震性貯水槽地質調査業務委託,,,,8ce8adf5-6fec-4d75-856f-b5af857b6e08,,,,34.297191666667,136.69276111111,,
"""社会資本整備総合交付金事業  南伊勢町2次避難所災害トイレ・耐震性貯水槽地質調査業務委託""",,,,678e5f4c-2c7f-41ef-b99c-0c2c8759831e,,,,34.296511111111,136.6927,,
令和3年度　名古屋国道管内西沿岸部緊急避難施設検討業務,,,,5bd99b4a-6e3d-48ef-9ea8-f6c5d0f2c067,,,,35.09597222222222,136.85250000000002,,
令和3年度　名古屋国道管内東沿岸部緊急避難施設検討業務,,,,90637d8e-bb38-4346-a435-0cba5921f661,,,,34.81222222222222,137.2473611111111,,
"""平成25年度 志防災委託第3号 浜島地区津波避難施設建設工事地質調査業務委託""",,,,50c48113-2aa7-47c5-aa28-a0ecfa167979,,,,34.295833333333,136.76044444444,,
福祉避難所老人福祉センター,,,,8b023754-db7b-4ef9-a291-14cb72959203,,,,35.98267301734681,137.9877182087396,,
領内地域避難所,,,,a8b03286-4fb7-4c04-be05-0fe326f9b8a3,,,,34.3453489991,136.285815,,
⑤横避難所,,,,2fa64e28-db1b-46e5-94a7-6bc2caa8aa72,,,,34.2134471374,136.402713635,,
浅間山避難所,,,,b9e116a6-b28b-4600-8f1e-40aaef8f3535,,,,34.2156152586,136.403139985,,
のぞみ町避難所,,,,1789f1bb-5bae-40c2-92e4-270327eaa4ad,,,,34.2271877779,136.395828959,,
釜土避難所,,,,9e0d815e-d794-474a-b19e-ac517ad71ce1,,,,34.2175904706,136.40160813,,
角町避難所,,,,738a3de8-683e-4c88-87f6-22fe7954eace,,,,34.2191934333,136.401481485,,
福羅避難所,,,,1373bce9-76a1-4236-857c-ba2e9ccdbc71,,,,34.2145841702,136.403438854,,
漆島防災避難所,,,,001f71d3-af2c-43ed-abb7-f9b1b4070b25,,,,35.1725091429,137.785637176,,
新港地区避難所,,,,e9c555e8-8474-4b8e-b32d-73a86089ed81,,,,44.9313955945,142.579526908,,
汐見台地区避難所,,,,f43a1c08-a3db-4d75-9973-b88e143af483,,,,38.2976317608,141.055422426,,
山の神津波避難所,,,,6d3aaf32-e788-436a-b8e4-411d159434f1,,,,34.2255810677,136.395178734,,
芦浜地区緊急避難施設,,,,fcb57dab-15de-407c-97b8-0e6ec9e80f2f,,,,31.7201966693,129.755207599,,
内川内地区緊急避難施設,,,,f1eed505-7ea8-4847-85fc-3c0e94ed1fad,,,,31.6905303037,129.694146658,,
米子自動車学校避難所,,,,4f2a4a54-3ee6-4fd2-91da-6222ac49e8df,,,,35.437493,133.316951,,
向井ヶ浜避難所,,,,84d93f2f-2906-48e5-af9f-936f540f2339,,,,34.214499237,136.397357592,,
一湊白川地区避難所,,,,a8c502e9-16eb-44dd-bbc9-48f8488e4bee,,,,30.4341340706,130.484320113,,
高岡会館裏避難所,,,,163bfa1b-7424-4e75-80ac-4fa7b25db067,,,,34.2287332345,136.388190665,,
清甫園避難所,,,,38cea23b-8b66-49ad-8e6f-e4889366cf0c,,,,34.2175393809,136.401834519,,
旧２６０号避難所,,,,455bb125-0497-4075-a3ca-d8e662aea7bf,,,,34.2309202694,136.394604911,,
老人優先避難所みどり,,,,0bffda01-2e35-411c-a8a1-609b538778b2,,,,34.0851805709,134.283895913,,
奥の川避難所,,,,3da1f8b8-c8e0-4f10-83cb-21e9ae4bcb59,,,,34.2586948,136.46636557,,
三宅村活動火山対策避難施設,,,,da5b8304-09ab-4c45-a49d-a624a402273e,,,,34.1213816732,139.505557603,,
復興記念碑,,,,7c6cc1e3-ffe3-4760-b003-bcfaa655016a,,,,35.444451,139.641088,,
国府漁村センター緊急避難所,,,,2a0ad1f1-21cd-4473-a37e-895daeb26a05,,,,34.3379622807,136.875376701,,
下水道内浜処理場避難所,,,,5eb6ec3e-9da2-41ad-91d5-29b59454c94c,,,,35.4400407035,133.303572638,,
障害者優先避難所すみれ,,,,bda6ab5c-42f4-4b68-b618-4fe7eab36763,,,,34.074586,134.278872,,
ふれあい館「鮎川」（福祉避難所）,,,,e47037f2-b651-4142-8220-98619129ed8a,,,,39.3282319991,140.067102,,
花のみね（福祉避難所）,,,,7c56f17f-fc80-43fb-9675-00063377ffb8,,,,33.304161,130.449026,,
復旧記念碑,,,,b2633e1e-9977-4fe3-9bff-2c6151f9e14a,,,,40.373945,140.729241,,
Ｒ５亀有・万世橋出張所管内屋外無線ＬＡＮ設備他設置工事,,,,1996f507-7933-494d-b062-cb67f04cd883,,,,35.74805555555556,139.79916666666668,,
論地集会場緊急災害避難所,,,,b495b4b1-d64b-4ec7-88b7-40f5c0a2473c,,,,34.918953,136.997043,,
大口元気こころ館（福祉避難所）,,,,dd4e9e1c-0324-4c90-ac70-661dd07b248e,,,,32.061814,130.610063,,
本村地区防災拠点施設避難所,,,,d086abb2-41e7-45e2-9281-5f8c6ecd088c,,,,32.8283944358,130.12817592,,
基山町保健センター（福祉避難所）,,,,cd7d2527-36af-4ec3-b8af-94c32487c825,,,,33.4266967401,130.52295214,,
老人憩の家（福祉避難所）,,,,b5dfc23e-8c52-4657-9530-76960434d8f3,,,,33.422211,130.520896,,
震災記念の碑,,,,c6051596-5104-4093-b083-1379352b842a,,,,35.695972,139.765196,,
令和５年度小矢部工区除雪作業,,,,322145d4-9028-4f82-bca6-2965e711a14e,,,,36.71388888888889,136.90708333333333,,
令和６年度小矢部工区除雪作業,,,,dd4163cc-3ad5-4bb1-8225-7eaa5de64553,,,,36.71388888888889,136.90708333333333,,
花のみね弐番館（福祉避難所）,,,,a096636a-893e-48fc-a5b8-86eebead5faa,,,,33.3000269991,130.450995,,
上府町荒相地区緊急避難所,,,,c007e412-b6dd-416f-91e0-8bde67f8052d,,,,34.9402776081,132.148530248,,
なかばる紀水苑（福祉避難所）,,,,5b289027-0d9a-47bc-8986-833e92bab85b,,,,33.363689,130.450544,,
平成３０年７月豪雨災害の碑,,,,2a22d4fb-ad8a-4ca4-9491-35d10f7d2747,,,,33.279839,132.540385,,
慰霊之碑,,,,9950dc5f-7a94-4a5c-a598-1f560db68f99,,,,35.012692,134.305517,,
東日本大震災　大津波記念碑,,,,a3ef7f21-34ec-4335-8159-f34ab17cda99,,,,40.099199,141.825173,,
私たちは忘れない(新潟県中越大震災),,,,01ffe066-498b-4363-b923-cbc869fbbbd1,,,,37.313453,138.783108,,
北山村社会福祉協議会（福祉避難所）,,,,80b36cd9-ef7b-44c0-83e6-1f9823cd4ed0,,,,33.9292249991,135.96714,,
慶師野地区防災拠点施設避難所,,,,e7f64476-2db1-429e-b568-da5faf2fe7d9,,,,32.8239455771,130.120233533,,
平成30年7月　豪雨災害の記録天応7,,,,87e70295-90bc-4753-a936-bdafab06f914,,,,34.288306,132.51608,,
黒川災害復旧助成事業竣工記念,,,,2c2a2319-308d-4ab1-84cd-88d562dc9d92,,,,37.113888,140.112817,,
利根町保健福祉センター（旧福祉センター）【福祉避難所】,,,,4c8c288a-aa99-43cd-9600-5a400129e19e,,,,35.871053,140.146419,,
3D都市モデル（Project PLATEAU）和歌山市（2023年度）,,,,abc86275-2aa6-4c5f-9db0-c53a56c42e2c,,,,34.23301732,135.15665805499998,,
雌子小学校,,,,d26669be-856b-4ee2-9e22-42fc27fc7205,,,,35.4563019991,139.597669,,
西柴中学校,,,,d90aff3f-f3e2-4a00-8c35-7dea730bee71,,,,35.352806,139.629344,,
井土ヶ谷小学校,,,,dfe5efce-9557-4e43-8f5d-39497fe26620,,,,35.432684,139.59954,,
南戸塚小学校,,,,e3592914-8858-478b-b83e-5a9e39dc41c9,,,,35.388133,139.525658,,
六つ川西小学校,,,,e6b9ad1d-6ad8-4f19-93fc-27353446093e,,,,35.424882,139.577798,,
綱島小学校,,,,edbb1e65-252c-4a57-b147-0423462c3dd0,,,,35.537394,139.627952,,
芹が谷小学校,,,,f2ca3387-f149-4cb5-8491-c4b2b73384e2,,,,35.415491,139.573876,,
六浦中学校,,,,f3166dcf-8ba6-4f7d-bd8e-cbbf8660150b,,,,35.324698,139.617789,,
東品濃小学校,,,,fe60d3c7-77ab-477b-8f1c-a6b400971485,,,,35.434183,139.560683,,
中川中学校,,,,503f1d5c-ef2d-4dcb-8143-990c81404ff1,,,,35.551197,139.593233,,
荏田南小学校,,,,54e31e66-5082-4170-910b-66abbac3cc44,,,,35.544725,139.556515,,
庄戸小学校,,,,5c710be4-4670-4aa2-9156-f4ea231f8054,,,,35.353081,139.584347,,
千秀小学校,,,,74c70ce7-46e6-4895-a2ce-262f7c8f1bd9,,,,35.371608,139.520075,,
緑が丘中学校,,,,753d924b-b5a6-42e3-94b6-d5781032690d,,,,35.535809,139.536545,,
みたけ台中学校,,,,80470853-cd32-48eb-acfd-cba66e60b8e0,,,,35.557083,139.521434,,
瀬谷中学校,,,,84921704-ffce-4993-b5fb-679725684e99,,,,35.471056,139.481174,,
上飯田中学校,,,,91bd4ddb-1d22-4f7f-a263-297e0b8b1360,,,,35.429766,139.481717,,
大池小学校,,,,94e09a2d-ee0a-4db6-82ea-361c356be976,,,,35.496564,139.531989,,
長津田小学校,,,,aa40faa3-f9ee-42fb-9365-21d04a2932f8,,,,35.530167,139.49113,,
中和田中学校,,,,ab0786e8-9d4e-452e-a596-ea011446fbf7,,,,35.41599,139.498216,,
大師中学校,,,,d3282fe2-e6c7-4f6b-981d-65dcfb86be78,,,,35.535255,139.738886,,
左近山第一小学校,,,,d56bbcdf-b684-4860-abd2-d2d68e698cca,,,,35.462318,139.54985,,
旭北中学校,,,,d5d6ead2-f51b-4960-b31b-aeb5692d9200,,,,35.495536,139.5371,,
川和中学校,,,,d797bb12-f417-49e9-b764-692e1d903f57,,,,35.531004,139.557126,,
瀬谷第二小学校,,,,f0341ee2-96de-4dff-9af1-e1da006795a4,,,,35.46054,139.481966,,
藤が丘小学校,,,,fa324a3a-0cd0-4409-a9d3-78cad02afb9c,,,,35.539114,139.526379,,
霧が丘小学校,,,,19764cfc-7167-4f95-833a-ffd7130dfbf1,,,,35.512089,139.50713,,
殿町小学校,,,,28b792b4-4c2f-4682-ad08-f953e1382838,,,,35.537505,139.745469,,
嶮山小学校,,,,3b1bd815-463b-4a3b-aacd-95760da5586f,,,,35.575887,139.52946,,
東山田小学校,,,,448be642-2e68-4523-b7a8-5c2c9e9c8ed7,,,,35.564417,139.595704,,
田奈小学校,,,,60a9bfd1-20b3-43cd-85be-5edf366cfe4b,,,,35.539306,139.500213,,
上白根小学校,,,,6707b7a0-6f0e-4960-99b0-342508a2ebb6,,,,35.49548,139.539433,,
中和田南小学校,,,,69fb046c-1203-44d4-80e5-743c35b499c3,,,,35.398242,139.484383,,
東本郷小学校,,,,784825e3-87d2-4040-8642-7d09d5004688,,,,35.505081,139.581898,,
榎が丘小学校,,,,79a5b8dd-624e-4906-9906-d2e60b5a02e3,,,,35.541918,139.509879,,
万騎が原中学校,,,,8483ba27-96d2-470e-bb43-e0722829d01f,,,,35.457735,139.535823,,
緑小学校,,,,8502d421-2e77-4747-ae5c-836719c96ab2,,,,35.50534,139.560561,,
森の台小学校,,,,8ec4becf-c9cc-4dd4-ba44-fd93337ba87f,,,,35.5088405666,139.535568943,,
大島小学校,,,,96082dea-e93a-4dcc-bf28-3049a5477b38,,,,35.516812,139.717361,,
鶴ヶ峯中学校,,,,983722ff-d197-40ab-b587-43616fd9dc36,,,,35.481593,139.542599,,
飯田北小学校,,,,9cd710c7-6e10-4336-9ece-968371940d3e,,,,35.434349,139.48155,,
恩田小学校,,,,a1c0100f-eda7-4bc9-8f02-ca8ddcab7687,,,,35.552443,139.499573,,
新町小学校,,,,aa3609bf-3c3a-42b2-be36-9016907e4a36,,,,35.518229,139.70064,,
浅田小学校,,,,aff03301-df9c-4d39-944c-e0bc3fabab03,,,,35.507397,139.702779,,
東希望が丘小学校,,,,b9064d96-ffca-4034-88cc-314274b88b81,,,,35.464401,139.511548,,
本郷台小学校,,,,baa1f00a-a1e8-49be-ad2f-06f85754cab4,,,,35.37133,139.549351,,
今宿小学校,,,,bc445ce4-22c7-4b3d-9690-44ac232d360b,,,,35.484121,139.536461,,
領家中学校,,,,be38649b-b2cc-4955-a4fe-e21b7bc0a4d7,,,,35.415351,139.52113,,
茅ヶ崎中学校,,,,beb92e3d-4790-4e11-8db2-8bf82c31c16a,,,,35.540711,139.582142,,
本宿中学校,,,,c4f07c42-383a-4ecd-9be5-404b3ee37855,,,,35.464429,139.547516,,
新橋小学校,,,,c6938de2-7f8e-45d6-b42b-b2a22f5723e1,,,,35.434349,139.506604,,
荏田東第一小学校,,,,cea0e7de-2abd-40b1-b676-ac9f4938c49e,,,,35.547002,139.562514,,
川崎中学校,,,,d00fc9cd-726e-4d0c-91f4-2014efe297da,,,,35.522729,139.689419,,
飯島小学校,,,,dba42ea8-b5ee-492d-8498-a6458257c7a6,,,,35.373025,139.53513,,
黒須田小学校,,,,dba80451-f98b-4c3b-8262-19d012bd353d,,,,35.568205,139.532938,,
上瀬谷小学校,,,,ddbba1bb-2c51-4c05-9325-9571197311b3,,,,35.489312,139.477049,,
鴨志田第一小学校,,,,e77b2f69-8f8b-4230-87a8-1eed47a68125,,,,35.557083,139.509628,,
桜本中学校,,,,e7858ac1-1b9f-4a99-a0e3-b82062df6c33,,,,35.523173,139.727027,,
宮前小学校,,,,e87d48b9-3da9-48da-95ca-c923025a764d,,,,35.528783,139.705862,,
美しが丘東小学校,,,,e9dd4e90-7f10-47ae-948c-2ae0c380eb36,,,,35.582386,139.560484,,
山田小学校,,,,ede4e7bc-b65c-4424-8134-8d47a7b7c388,,,,35.559719,139.603184,,
都岡小学校,,,,feb34a19-6892-47e4-a3e7-576508ec0d13,,,,35.485149,139.52124,,
東住吉小学校,,,,3cc21395-d8bb-415a-9579-7b372490a938,,,,35.569417,139.657976,,
西生田中学校,,,,44b96904-a0e0-4447-b9f0-b331ec6a9a82,,,,35.61577,139.519598,,
御幸小学校,,,,456170b3-35bf-49d2-a956-69005a81c2b0,,,,35.543226,139.692057,,
大門保育園,,,,de494dc7-b9cf-4321-96f5-63767c505ce1,,,,36.216805,138.250527,,
荒町公民館,,,,df0996f4-ef3e-4992-adc7-23fff2a830f9,,,,36.3124967282,138.503239768,,
立石分館,,,,df0c11d2-8dbb-417e-9302-82e3e4004174,,,,36.2726984191,138.29456442,,
御代田町営雪窓球場,,,,e0a346b0-9a9c-4485-b002-2eb36eed99c1,,,,36.3098155601,138.517183911,,
豊昇第一公民館,,,,e6cd4340-b4d5-4020-8e46-2bdaa0a3a51f,,,,36.296953156,138.530578751,,
老人福祉センター,,,,e90e96df-b1cd-4333-a9ee-1383d95a3c78,,,,36.2710499991,138.315047,,
馬取公民館,,,,edaa6edf-8993-4547-8849-02e2522aaef2,,,,36.2995465852,138.617917174,,
塩野公民館,,,,fb5f0a5d-c2d7-4c3f-9ef3-8675c517a936,,,,36.3343917867,138.492566696,,
矢ヶ崎公園,,,,fe658141-c2ce-453c-90e0-2deef0d522e4,,,,36.34541948,138.63747107,,
入笠山登山口トイレ庭,,,,0613dc0e-5980-4cd0-b410-a59fb9738d52,,,,35.9037221722,138.208659989,,
介護予防センター「たのめの里」,,,,2b69e40a-3f0e-4a25-8ad7-79149a0c4480,,,,36.0462787786,137.970534158,,
長門小学校,,,,2f40175a-c8c0-4c67-b4ad-d3ece1bce261,,,,36.259578,138.268412,,
東山田公民館,,,,3f325ce5-c3a7-443b-a76f-908a910139ed,,,,36.0823234179,138.075824069,,
南原運動広場,,,,4467be17-0540-4336-ace9-55a865d77c61,,,,35.9353994948,138.232123363,,
落合保育園,,,,480f3c82-6ed9-4c5c-9a32-6a060d63d374,,,,35.8881834223,138.249312495,,
富ケ丘区公民館予定地,,,,5d8b97a7-560d-4633-bf1b-7d349b0a0caf,,,,35.9249847849,138.234057249,,
桜ヶ丘区公民館,,,,62b218f8-01fb-4cad-812f-63d21b7a0893,,,,35.917809,138.240808,,
新田原組会館,,,,63ff9bf9-6f4d-4031-af72-d5dcbc916869,,,,35.9222803072,138.249625812,,
東明館,,,,66d5d718-9692-4aca-982d-ec45aefbadff,,,,36.0784934026,138.089161082,,
原村中央公民館,,,,6884c71b-832a-46d5-837c-3fbb292d7cb8,,,,35.962187,138.217491,,
コミュニティ・プラザ,,,,7772a7cc-56ec-485c-a06c-3d96598dfc61,,,,35.9131909991,138.236782,,
道の駅信州蔦木宿,,,,7eca9143-147d-4b48-9caa-f4edc0073a9d,,,,35.863269,138.276911,,
原小学校体育館,,,,80fa5788-6a6f-4a55-9f15-263e2775f62d,,,,35.96317,138.217817,,
長門柔剣道場,,,,92f7c656-9257-49f6-ad80-8431a55713a7,,,,36.2581055973,138.267583,,
下諏訪総合文化センター,,,,9623fced-ae4b-4982-833d-999c9499a755,,,,36.070104,138.079646,,
八ヶ岳自然文化園,,,,9e6135b9-cdc8-4d5c-8df4-8ed8ba46f372,,,,35.971675667,138.266913663,,
下辰野南部公民館,,,,9e914403-c5c3-4425-9459-3219b262d934,,,,35.981149171,137.991790377,,
境保育園,,,,a05620b5-8e60-4a8c-96fa-c918ca596885,,,,35.8855429991,138.277398,,
下諏訪町第５保育園,,,,b47d72ca-dc38-4db9-ba9a-e2adcf31f687,,,,36.081372,138.078483,,
塚平区公民館,,,,b56e6674-27fb-430c-ae61-e32b271170e2,,,,35.9059449991,138.231819,,
長案寺（協定締結）,,,,b78f975b-5605-430c-972d-ce5e5f388334,,,,36.251371,138.268488,,
ほたる童謡公園（平出側）,,,,bcda927a-b086-47c2-a235-ce5bf8328145,,,,35.9918443691,138.00315999,,
花場区公民館,,,,cf4bb20b-c42d-4191-8e21-4ec5f8dbf447,,,,35.885966,138.225777,,
宮木中央集会所,,,,d0ca28da-81fa-48b8-9556-f690558e955d,,,,35.9835783225,137.985872946,,
小横川公民館,,,,da09e4d5-a2db-44fa-8e0b-b3519d82fd64,,,,35.9966235778,137.964184406,,
柏木農村広場,,,,dd0d4332-a440-40ed-852b-ba9f83447f96,,,,35.963984693,138.199692029,,
春宮公民館,,,,e4c4467a-07d2-4af9-8e17-aeee911b6847,,,,36.0490869089,137.963554102,,
葛窪転作研修センター,,,,046bb132-d511-4da7-be33-f8cd7076b340,,,,35.8874699991,138.300779,,
大平区グランド,,,,0aba0c19-731b-4297-8e68-b50a89b568fa,,,,35.9134564929,138.215459297,,
先能集落センター,,,,28324132-eefb-4aae-94d2-0f96f5337f95,,,,35.8868219991,138.245354,,
木之間区運動場,,,,4404cd31-7bfc-419a-9012-aa1d827cdcb1,,,,35.896975227,138.225825083,,
押野コミュニティーセンター,,,,56698776-5b5e-4f4f-a238-14b9bcd92fef,,,,36.0433939991,137.955837,,
机集落センター,,,,5d2a11f4-7beb-43a5-b23c-8baa0c662927,,,,35.8874839991,138.250879,,
協和館,,,,87860ae6-873a-4da0-bbf3-da544df5e059,,,,36.0750719355,138.08296722,,
萩倉公会所,,,,8a2023b5-4d6b-4146-afd1-d4f3b2f9feb7,,,,36.100731,138.099058,,
富士見保育園,,,,8fd67586-3702-44e5-b769-5e5612ef39ca,,,,35.9135744731,138.23239834,,
北古屋公民館,,,,bcb80292-e54e-477e-9841-d3b2baf9363c,,,,36.270699,138.267183,,
あすなろ公園,,,,be50a1f4-d76e-4f75-abab-417cc2ddfbc6,,,,36.0696536725,138.078592806,,
砥川西公園,,,,c7cf3186-ea93-45e3-923b-be3ea1836f88,,,,36.06954268,138.07619056,,
宮木南公民館,,,,cf996f4c-5ca6-4112-a84b-0e6f9db20436,,,,35.9763177655,137.985879304,,
下諏訪町老人福祉センター,,,,e690b8c8-a297-4c39-a6de-d86dc27c79c1,,,,36.080353,138.07926,,
高畑公民館,,,,edf5a3b7-e2e0-43d6-b61a-8606195094d2,,,,35.982753041,137.983359915,,
下村コミュニティーセンター,,,,f6cc8961-6a61-4e51-88bd-8f32a4aa9dda,,,,36.034485,137.947851,,
和田老人福祉センター,,,,f73340ce-89e4-456d-a49c-55b94301932c,,,,36.2089139991,138.217399,,
中川村文化センター,,,,1e332fba-a1c2-4f9b-bc89-e4654a077959,,,,35.6321394468,137.934020449,,
大日堂,,,,24dd72e5-8ebf-4b10-b85f-4024db840cd0,,,,35.9544876663,137.97690718,,
北原公民館駐車場,,,,2bb8eddb-89e2-49aa-a829-1775ce73a2ab,,,,35.8947349839,137.964809168,,
久保旧公民館跡,,,,3a523700-8937-458c-bf4b-64381d7f6648,,,,35.8936699185,137.982885047,,
多屋公民館,,,,4753debc-9370-4d10-b95b-911d4c9923ee,,,,35.9550220991,137.973437263,,
（株）ハーモ駐車場,,,,55da2c35-e878-4e07-adfe-2c483b615fdc,,,,35.8841848103,137.985296408,,
西部保育園,,,,56ab963c-79dd-45d3-8e33-ba72fded251b,,,,35.885923,137.962619,,
中村公民館,,,,93766330-69c6-445d-9168-08ffc68c8494,,,,36.0319542208,137.933758478,,
上伊那農協南箕輪支所駐車場,,,,9e6bd461-72dc-418e-883e-6a2288c0ac0b,,,,35.8718089443,137.978325366,,
中央保育園,,,,a98d589e-8014-476b-b2d9-b455331f52af,,,,35.981996,137.986391,,
宮田村老人福祉センター,,,,ac61f9c7-c30b-4d66-b9de-ce4ca3d3e064,,,,35.7648015347,137.944522553,,
南部保育園,,,,ba155bf4-6d0e-447b-ae3a-80438667a97c,,,,35.859621,137.969591,,
三日町公民館,,,,bb3ec9c5-9e36-4b4f-8129-8d2291bf51b3,,,,35.899609,137.996563,,
北大出ふれあいセンター,,,,bc819490-d60d-4e28-8fd4-07f93cc804b3,,,,35.953213,137.973538,,
箕輪進修高校,,,,c271c02d-3097-45ec-a668-2d2eadd45dd2,,,,35.9058659991,137.982033,,
上大島公民館,,,,c3cffc77-67a6-446e-a8da-98cecbdd2e4c,,,,35.604058,137.89189,,
町社会体育館,,,,c5e9eef2-6a7a-41ea-b757-f25bd27612ae,,,,35.9775228153,137.989931078,,
川上生活改善センター,,,,c615d1d4-0aaf-48c0-8ad2-3f56e46a5f28,,,,35.992542,137.908423,,
長岡公民館,,,,cb2d5ced-7f68-43bd-8388-36ee98203496,,,,35.9237085904,138.003005295,,
上島公民館,,,,cfe47100-fc33-4837-a281-6302738bae3c,,,,36.0051597041,137.973860392,,
木下公民館,,,,d139d214-2b91-4fba-8a02-0e6030fe1ef9,,,,35.900478,137.991676228,,
沢尻コミュニティーセンター,,,,d1617518-08b5-40dd-a89e-e0b8d7405329,,,,35.8548088709,137.944012016,,
旧かつら保育園々庭,,,,d32fee39-9d1d-474e-b3e7-4d4125ff3d6a,,,,35.619733,137.930298,,
富田公民館,,,,d8f94849-755d-473d-bcca-41e2163aa591,,,,35.909995,137.933965608,,
上片桐改善センター,,,,e5cc4a77-a1bc-450a-9638-052798ab4e3d,,,,35.6179969991,137.900345,,
柏木運動場,,,,e7b7b46a-26b8-4445-af73-0edb2a0c3bbf,,,,35.6645695849,137.916300332,,
中川中学校グラウンド,,,,e9189dff-2f33-44dc-9865-d200370286d1,,,,35.629454,137.933408,,
飯島成人大学センター,,,,f070d352-e307-4aa2-90e1-9239402e24ca,,,,35.6785071733,137.929533768,,
南部小学校,,,,f1d0bcd3-2338-409c-92ac-2a3fc7723695,,,,35.860163,137.937601,,
宮田村文化会館,,,,51ae8f77-fbab-4552-97ea-ec88961cce7f,,,,35.751959,137.91464,,
上伊那農協広域選果場駐車場,,,,60351700-3418-4607-a4e1-acdf13d7156e,,,,35.8641167214,137.953791952,,
町２区公民館,,,,60c7d370-f2f1-46b2-8160-ec13036b5b13,,,,35.7676456488,137.94106862,,
中込公民館,,,,79185d51-17e8-4ab3-9de2-a7d9166f38e4,,,,35.8871497852,137.978641407,,
箕輪町中部小学校,,,,86dcc7aa-2000-4a14-b38b-2ec2b93897d0,,,,35.910754,137.9812,,
田切野球場,,,,aef9b910-ebf4-444d-ab8e-93fa157b13e1,,,,35.6996714853,137.939177154,,
北部保育園,,,,b8520785-dcb4-4d80-8968-1392127f2874,,,,35.889405,137.982539,,
新田公民館,,,,be64ebb8-d63e-4f40-8fad-fc01b36b0b94,,,,36.0300479924,137.972321209,,
長田保育園,,,,d23be0f4-ed23-4e89-adae-55f358241e14,,,,35.938084,137.961506,,
南箕輪村公民館,,,,d5604e52-7d6c-40fe-9ee5-c43db768331a,,,,35.874267,137.977037,,
大久保集落センター,,,,eea4079b-35e4-4c0e-bf64-04191983f128,,,,35.757803,137.95361,,
南湯舟公民館,,,,f0411456-2dcb-4887-8a18-3c2a456bc5bd,,,,35.9816111235,137.980775334,,
東樋口いきいき館,,,,f408a911-85ba-4909-aff2-b769c04dbe89,,,,35.9600907618,137.995900594,,
宮田村民会館,,,,f6af0d4f-8dfe-4e48-a917-7f50d5801b62,,,,35.7653449991,137.945146,,
セイコーエプソングランド,,,,f94146f8-bb3f-475d-b6bb-ea50b711095b,,,,35.9196715273,137.980128667,,
中央保育園,,,,356b4e4f-dee5-4557-8208-9cd22e2da656,,,,35.3239059991,137.812958,,
東小学校体育館,,,,76c7b217-882f-40ef-aed4-178ea87048f5,,,,35.584767,137.970463,,
入川集会所,,,,8335848a-406f-439b-8f74-23cf4eb00f7c,,,,35.3094023016,137.641242519,,
北又公民館,,,,863103fa-c69a-4f32-af83-d305dc235ab3,,,,35.3904392475,137.794931391,,
中下町集会所,,,,88219187-74c1-44df-8824-90af91f9be14,,,,35.3746697893,137.689329452,,
唐笠生活改善センター,,,,99174760-d14b-464c-ab3d-c44c711cb603,,,,35.3968159353,137.819573183,,
泰阜北保育所,,,,9f4b0684-936a-47e7-a2f0-e31e7bd64993,,,,35.377807,137.842428,,
下市田保育園,,,,a2d37e26-a13d-4c09-a27a-581d645d25ba,,,,35.546464,137.871415,,
ダサラ地区館,,,,a5061a1f-b12b-4bd3-bc31-46878214801a,,,,35.550472,137.885078,,
万場生活改善センター,,,,afb6b7f6-1a24-4aea-b398-7410688c82fb,,,,35.3869623849,137.833738867,,
町民会館,,,,b039c63e-ea1d-4a5a-8a5a-d2048aba3bac,,,,35.3165049991,137.813809,,
福島集会所,,,,be2ca5c8-fd5b-4069-ab29-6f558635817a,,,,35.2614762304,137.827540529,,
下山集会所,,,,bffbb201-f768-4c35-aa8b-ba01eeb7dacc,,,,35.2498255251,137.836686452,,
山村開発センター,,,,caeef134-4149-415c-beee-01d2481f212c,,,,35.377445482,137.845931812,,
下條保育所,,,,cf8ab7ca-cb69-4737-b695-6144b500cc67,,,,35.391203,137.795486,,
入野公民館,,,,e7098aa9-60e0-475c-9ee8-58ba8486679d,,,,35.380166748,137.774987002,,
下條中学校,,,,eae4d021-ed1f-466b-b595-57a05ea01968,,,,35.39623,137.791292,,
宮本集会所,,,,ef47bc9d-cf46-4b54-bc5b-7576e1d34e1c,,,,35.3774293875,137.68695563,,
小松原コミュニティーセンター,,,,f2e0c7b9-ca5a-4993-8dfa-a8659da63d3a,,,,35.4207885292,137.792717666,,
大河内多目的集会施設,,,,faa68811-b7f1-431f-a2aa-2f3f56d56957,,,,35.2319379861,137.750336365,,
浪合コアホール（浪合支所）,,,,fba06e2d-f835-4b9d-bf07-b3a759400a4e,,,,35.3742249991,137.69044,,
上清内路公民館,,,,2d681040-5d27-4ee1-a6d9-9787fa0dd242,,,,35.5040143209,137.682633316,,
大久那集会所,,,,3d26b3c1-716b-4e07-9cf2-c54be84201e1,,,,35.2711886877,137.811223848,,
どんぐり向方学園,,,,5e0f78d5-d589-4963-b77a-db43faed9aa6,,,,35.2469979991,137.785685,,
平谷保育所,,,,69775c10-5424-4008-8a4b-949001b9ed6b,,,,35.321652,137.627113,,
泰阜南小学校,,,,6a027c2a-54d4-484e-b13e-5ec56c7433dd,,,,35.345127,137.847676,,
浪合高齢者コミュニティーセンター,,,,8dddd7be-5a68-4aa5-9a64-92334ed6a9f8,,,,35.3752159991,137.692975,,
出原区民会館,,,,90e24e09-7b15-4816-b695-f243ab4f1bfe,,,,35.5722501635,137.873819044,,
新野保育園,,,,9577c46e-b422-4bc9-8544-1c765c4fe134,,,,35.260301,137.744327,,
高森中学校,,,,9c05ae15-b342-4685-b4fe-92cda1189ba1,,,,35.552435,137.87622,,
上平集会所,,,,a4fb25d9-ca67-4b83-b62f-492d1c164c63,,,,35.2252863596,137.842800751,,
吉田河原保育園,,,,a5eb8928-95a9-4734-a726-80141f795acb,,,,35.558018,137.888608,,
阿智高等学校第２体育館,,,,aa2b77b7-108b-4b13-a589-ee98494aa366,,,,35.448084,137.757126,,
Ａコープ喬木店駐車場,,,,b35d2258-e16e-4232-972f-2d4bf40ee0ed,,,,35.5180734424,137.874413038,,
阿智第二小学校体育館,,,,b95f8da1-1043-4c20-8f61-9f654dfeeb93,,,,35.425976,137.746322,,
下清内路公民館,,,,c5434288-460a-4e69-b023-253804af0bbf,,,,35.4902760283,137.704925333,,
下條小学校,,,,ca28d9ba-bf48-40d7-9900-7f2e6c4e4101,,,,35.397008,137.788236,,
智里東公民館,,,,cec1176d-0d47-41dd-ac69-14f39e169241,,,,35.445565,137.71821,,
福島文化センター庭,,,,d939a21a-d162-470c-b77a-89a8ab645014,,,,35.2615732653,137.82778415,,
あさぎり館,,,,dd833b17-7374-42c8-b5c3-0a50ecd687ab,,,,35.3537259365,137.848136287,,
牛牧伝承館,,,,f2a9d676-48f0-4c3a-a6af-eac72497712a,,,,35.5535171712,137.849853348,,
阿南第一中学校体育館,,,,f43adf56-9892-44c8-b938-6726200a5ccb,,,,35.327632,137.822885,,
高森荘,,,,f5ab4741-c067-4327-b9a7-3078fd5c5a38,,,,35.5731,137.902829,,
菅コミュニティー消防センター,,,,0fb6fcde-b02b-44fa-8baa-2ca3ebace13b,,,,35.9327810479,137.764896609,,
帰牛原公民館,,,,23bfb3b1-3810-44d3-a4c7-381e6e3bcd92,,,,35.520394726,137.884612449,,
りんごっ子公園,,,,2b461d5f-1e86-464e-9837-cb1dd24432d9,,,,35.56531801,137.908552543,,
蘭分館,,,,67e86ffa-b409-44ad-a3db-cabcf28a0007,,,,35.5602003356,137.627348644,,
下河原運動場,,,,78662528-e801-4852-a26d-ff945b7422e1,,,,35.7479306823,137.713065017,,
豊丘中央保育所,,,,78c5dae2-31fd-4068-89b5-e88569ba3000,,,,35.54552,137.892386,,
新茶屋旧道,,,,8263d422-6d45-4dfd-92f2-fbf8938a2ad3,,,,35.797886,137.690016,,
７区集会所,,,,91610a53-d549-4f31-acd0-f069c8173999,,,,35.9358405945,137.783945275,,
旧蘭小学校,,,,95f94e81-3d8d-4e22-9b5c-d1dca67ca398,,,,35.558373,137.633357,,
公民館鹿塩地区館,,,,9b009ef5-88c7-40b4-bd1f-6e768f677283,,,,35.58801,138.044968,,
旧庁舎,,,,a76931f0-514c-4e66-91e8-e7c68c156ce8,,,,35.936749622,137.784308391,,
田立分館,,,,b542e0c1-027f-4adb-93ee-91d17ea1851e,,,,35.5901119277,137.551017362,,
下切集会所,,,,be9d2ac1-85a7-4c4a-9316-1f70dbdb851b,,,,35.5893331755,137.548173768,,
大和知農産物集出荷センター,,,,cbbb9378-1a92-4ac1-9be9-f72dbaf1df35,,,,35.483659954,137.89964269,,
和合北集会所,,,,cf370013-b2b9-46ee-b54f-4a389a405221,,,,35.6025781564,137.609831072,,
塚野集会所,,,,d355df61-a0ce-46e1-bb1e-8e069481658d,,,,35.6059608311,137.530928478,,
喬木南保育園,,,,d6f60675-b1d6-43f2-b4d0-154b22e29774,,,,35.482139,137.888444,,
寝覚運動場,,,,e77b764e-15b9-44aa-98ea-dfaea5fda8be,,,,35.7730696331,137.708432433,,
加々須区民会館,,,,0c882e84-9a32-4026-ada6-e791e22a1363,,,,35.5026816608,137.911900998,,
喬木北保育園,,,,1dde63f4-8bd5-4f14-8c01-07ee9b94c142,,,,35.520829,137.883943,,
小野集会所,,,,396df229-eac3-460a-85b0-edb19c753995,,,,35.7631082324,137.705184334,,
堀越天神グランド,,,,41edcbf5-a859-46ec-a53e-e3709abe03ba,,,,35.557026967,137.93378122,,
御手形農事研修センター,,,,558dcbb3-2a9f-40db-ab93-38afeb7ea519,,,,35.5356679882,137.927270986,,
喬木村第一公民館,,,,59ff3ea4-8954-4aa0-89b9-9eb8df08bb5a,,,,35.5203929991,137.884555,,
ねざめホテル,,,,614da091-b870-4fa9-a9d6-7b033925e238,,,,35.7708711303,137.702757841,,
富田陶芸館,,,,7dd8c46d-42f5-4c4f-88df-67f8d519ae12,,,,35.4829759963,137.886457434,,
南木曽中学校,,,,961bfc42-e0cd-436d-9f5f-1fd5e9e1249e,,,,35.597701,137.605358,,
北上条公民館,,,,a80ac957-2180-4a7b-a71b-c3dedf79dc22,,,,35.8066734397,137.685006304,,
倉本集会所,,,,afe9070d-ae1a-467e-b46c-b72d3a202e9b,,,,35.7286165246,137.712219218,,
大島山の家,,,,b82a9334-caa5-4a47-91bb-32248f832057,,,,35.4997409807,137.943750018,,
上松中学校,,,,b98fe908-a6c9-4c69-a2d2-004deb60dbe0,,,,35.771236,137.706131,,
滝川会所,,,,c9129682-5da6-4fe4-a8a7-1611dafb99a4,,,,35.5766973314,137.92304571,,
村立豊丘中学校,,,,cd4d1e93-b1b7-4c3c-9f65-db73c5ea2667,,,,35.545075,137.896969,,
元組集会所,,,,cf92671a-4a50-4e1f-aef5-c544e62f4235,,,,35.588623,137.556122,,
平安祭典喬木斎場駐車場,,,,d20742ab-dbdc-473a-a1c7-61bd3edc2125,,,,35.5250852241,137.878477353,,
郷土館,,,,d215db50-c625-455c-92d8-bdbb9cf3d56c,,,,35.9317437793,137.783562876,,
下切生活改善センター,,,,dae7f445-69c4-4863-a9be-7f27f022482a,,,,35.5866791678,137.542176348,,
川向集会所,,,,dbbb988b-068d-466e-97b4-a8143719d495,,,,35.6085754021,137.607976969,,
西中生活改善センター,,,,e12f8f8f-9c8c-4b00-a5f8-b7cbf5142bb7,,,,35.7714109597,137.663219898,,
豊丘村民体育館,,,,ec8edea0-9309-4c1e-9304-54583f0b0b8a,,,,35.5375599991,137.90864,,
尾又集会所,,,,f33b6837-bc74-4160-aa87-d802b8f6a6f6,,,,35.5723723081,137.593063412,,
役場庁舎前,,,,f649364f-bacb-4d96-92e1-cc69f1db4470,,,,35.5138289991,137.87386,,
関西電力社宅前広場,,,,f9c359da-3ea0-400f-aae3-6bec7e7e21ce,,,,35.7789757167,137.689425811,,
三岳小中学校校庭,,,,5d59089b-90e4-485c-a0bd-442d6bbe400e,,,,35.8421421874,137.626217945,,
木曽合同庁舎駐車場,,,,672b8f03-b7e7-4fa1-a29c-70eba5ec6cfa,,,,35.8391692677,137.687907116,,
日義保健センター,,,,8655f49f-71d0-4f86-add9-e95cbbba79a3,,,,35.8780951459,137.755282768,,
木曽福島会館,,,,9bf85682-8025-44be-bb48-f507a49108c3,,,,35.8519909991,137.700018,,
大日向生活改善センター,,,,a3ab37d9-d6ff-450e-ad05-b7067192df73,,,,36.4541740279,137.944490232,,
元原生活改善センター,,,,a59be2b5-5ac3-452c-8090-4984c8196040,,,,35.8677136716,137.738654328,,
新地アクティビティーセンター,,,,ae5dfd49-e258-4ba1-8f34-8de7d4c8810f,,,,35.86006,137.750613,,
薮原保育所,,,,af0e3de4-1859-4ff9-b674-2e64aa7b3ea4,,,,35.9338535808,137.784847621,,
旭町生活改善センター,,,,baaa0afc-55e2-4d82-9b5b-2fd58df66689,,,,35.8881711759,137.76263942,,
徳音寺コミュニティーセンター,,,,bb6cecf6-7480-4c4f-9e0a-64320869f1f8,,,,35.8963349991,137.764339,,
屋敷野地区集会所,,,,c2d7f543-3e69-471b-bc92-d69dee92310b,,,,35.8658694391,137.573691184,,
王滝村国民体育館,,,,cc58872f-0bd2-418d-8c69-b0e871a75dc4,,,,35.8109457967,137.549849779,,
日義中学校体育館,,,,d4f35a2c-b993-42b1-aeeb-c8446e6b11f3,,,,35.881206,137.758905,,
生坂村総合グランド,,,,d684cee9-6624-4c1e-a8cf-cc23b0a9cae3,,,,36.4313196268,137.925659825,,
開田高原体育館,,,,df8b7832-f217-4795-86d8-f2c6be9ee156,,,,35.938563,137.572146,,
麻績村総合グランド,,,,e04f9107-2daf-4340-be54-fd598164ca73,,,,36.4546730415,138.038416096,,
込地公民館,,,,e30e171f-cf51-4e38-9f70-b03472335379,,,,36.4600789934,137.963646912,,
ふれあいの館,,,,e742942b-9e2e-40d0-aaa4-02998215a4f7,,,,36.168563,137.87721,,
開田中学校,,,,ec21e01e-9407-49dc-8125-82dcbfe6a839,,,,35.933541,137.602521,,
下条区公民館,,,,ff0b554d-36d8-4c8d-aed7-6fc1e5e6b877,,,,35.8098651492,137.551855062,,
山形村農業者トレーニングセンターグラウンド,,,,ff797b1a-84b2-487d-be40-0e03314296c4,,,,36.1687571292,137.877592259,,
木曽福島体育館,,,,3ab11dd5-5029-403f-8833-7f4b5d0d806a,,,,35.859601,137.700609,,
上中入生活改善センター,,,,7a27c27f-9801-46b0-a5ac-121139cf830a,,,,35.9045697556,137.682464812,,
木曽幼稚園,,,,7c9a7c8b-2795-4a41-8e93-e2c44269f150,,,,35.84716,137.697741,,
東区公民館,,,,93c52b80-5bb0-484a-b0ee-89941c4135a1,,,,35.8136765495,137.554736923,,
生坂村Ｂ＆Ｇ海洋センター,,,,96aaba02-0076-40f7-922a-d6c58d76c81c,,,,36.429458,137.925233,,
中央部分館,,,,9efb0f7c-1ed5-41db-967a-4352d7b75773,,,,35.860014604,137.59793584,,
山吹館,,,,a0ccae26-6859-43a4-bae1-05bd3da1ef57,,,,35.8882049301,137.759215362,,
須原地区館,,,,a3e068b3-1569-4ff2-8d8d-ef535918c15e,,,,35.6966260929,137.691904956,,
大桑中学校,,,,b86bc2f4-cf0d-4303-b3ce-9d92551623ba,,,,35.688086,137.672056,,
日義野球場,,,,ccd43ea1-ee34-4cc6-ac11-34340bfd558e,,,,35.8754292842,137.74627789,,
旧日向小学校校庭,,,,dbe3bc15-6a44-4c4f-8d31-535ad31e82fc,,,,36.4563805986,138.012511932,,
王滝村公民館,,,,dc3dc355-626d-41ca-9f1d-7bd6872e7d53,,,,35.808886,137.553712,,
小川テニスコート,,,,f521b8d2-2d2f-45a2-b68d-7489b0a12f9a,,,,35.8066516219,137.541937,,
倉本集会所,,,,f6d0917a-b9f0-4e7d-ba8e-3dd7839aba84,,,,35.8959358649,137.588414058,,
駒背グラウンド,,,,f7f44734-e90d-4aa2-be37-0aa5a93c30ed,,,,35.9601787098,137.58069131,,
川合生活改善センター,,,,fcf3101d-cb31-448d-b8e4-1a139a0f82ec,,,,35.8229928179,137.675187724,,
役場駐車場（多目的集会施設、ふれあいセンター）,,,,6b1a1959-56c3-451e-a49b-85a37e9752ab,,,,36.6983498372,137.862272406,,
乱橋活性化施設みなくる館,,,,7c6b4aec-717f-4ec0-b3ed-3c790f478ceb,,,,36.3831694074,138.007229957,,
東山夢の郷コミュニティーセンター,,,,9bf5c3b6-72bd-43b4-890c-3b8377985c04,,,,36.4080545432,137.908630665,,
坂城小学校,,,,b79758e4-0143-49bf-8e0e-17643ba08322,,,,36.466192,138.184105,,
旧北小谷小学校,,,,c6ca925d-ea52-4b3a-80dd-d58632705406,,,,36.8444843657,137.90027416,,
緑の体験館,,,,d4e901da-c115-4ef8-9cdb-a92251c2ca3e,,,,36.1146040018,137.834593666,,
Ｂ＆Ｇ体育館駐車場（Ｂ＆Ｇ体育館）,,,,ed9a7f57-d328-479c-9e80-31bcc51d09c4,,,,36.6900328523,137.858894756,,
コミュニティ施設赤芝,,,,f326cb6d-94b1-4284-b162-18daea30ac47,,,,36.4169753568,137.86454589,,
坂北デイサービスセンター,,,,f383184d-de33-4032-b327-6d91803b6aa4,,,,36.4260959991,138.015712,,
中心市街地コミュニティセンター,,,,f53d517a-8076-4453-9e68-f214690e7327,,,,36.4636,138.183077652,,
塩島基幹センター前（基幹センター）,,,,fc8165e8-524c-4624-bbaf-eb966006a12f,,,,36.7114555278,137.876605277,,
南条保育園,,,,ffd03a7a-8649-4488-99b3-64934ce192f2,,,,36.436035,138.196442,,
上五明公民館,,,,66cf0a99-c3c1-44c1-838a-74cac82b91ae,,,,36.4547367537,138.17142113,,
瑞穂体育館前（瑞穂体育館広場）,,,,863f6d5a-7609-4d9f-8ca7-83cd831eabc3,,,,36.69193,137.84449,,
北小学校,,,,8c242232-5e64-426d-bf69-605c4a37a511,,,,36.800688,138.436406,,
緑のコロシアム,,,,8ef478db-7cfd-430f-9d8c-abb679c24f70,,,,36.1119400086,137.832104287,,
高瀬中学校,,,,94b60338-ad43-4f74-8302-a2a68c98d5f2,,,,36.419549,137.874749,,
新地団地集会所,,,,9edd46e3-062b-4d8f-9f8e-520529567d41,,,,36.4311325766,138.197845925,,
松場公民館,,,,a4385cbc-ac34-435f-b49d-a3ee9fac5965,,,,36.4536418601,138.078842392,,
相道寺集落センター,,,,a75b4c74-abb4-4755-91cd-90d429e54d1f,,,,36.4202286393,137.892715501,,
中部会館,,,,a94a1898-8a2d-4f5c-8ea8-4c2bcc2c02a8,,,,36.4249653058,137.848615439,,
苅屋原公民館,,,,acaa1403-db04-4e83-b6f7-a6dfad96695f,,,,36.4686724431,138.165438667,,
八方第５駐車場（文化会館）,,,,ae7036da-82c4-4db5-b2de-ea156c76d551,,,,36.707301737,137.872477339,,
南条小学校,,,,b7a2d6e3-aa92-43b3-98b4-214aad4d4f48,,,,36.434862,138.194467,,
本城体育館,,,,c3908055-20fc-4be9-b4bb-3b3ec999be84,,,,36.41246,138.008218,,
入横尾公民館,,,,cbcd81e6-b181-4c30-8575-4bc5134035ad,,,,36.4409614379,138.20747979,,
本城公民館,,,,d2cfa765-90c5-4822-9955-70fa38330d8f,,,,36.412796,138.008318,,
土谷生活改善センター,,,,e58ccb3c-fde8-42c7-a8fb-f4cdba4d0f10,,,,36.8052368598,137.926499006,,
東松川南区公園（ふれあい公園）,,,,e6134607-a4c3-4d8c-86b5-196d9be15d77,,,,36.4254051915,137.855603209,,
月見区集会所,,,,e6903aff-65cf-4e1c-b8d6-61cacd96c240,,,,36.450168,138.177135,,
安曇養護学校グランド,,,,ead76733-8b56-487b-a477-965eb9060049,,,,36.391441,137.876721,,
森上基幹センター前（基幹センター）,,,,f4b1f8d5-7095-4d63-a4d3-eb192cc766e5,,,,36.70758,137.868548072,,
生涯学習センター（グリーンワークまつかわ）,,,,f4ffabd3-5c3f-4198-b13a-41224ec3f300,,,,36.411238,137.860658,,
６次産業センター,,,,f72b2f4a-5597-4acf-8753-01ccf1cf4f6e,,,,36.6955012356,138.327461072,,
鼠公民館,,,,f7946a93-5b4d-41ab-8400-ce871b9080ec,,,,36.4267420945,138.193361522,,
旧中土小学校,,,,fb5fe33c-cad8-43da-9bcc-8e753abe1f2c,,,,36.8176114114,137.920456011,,
南台コミュニティーセンター,,,,fd6da9e8-2e47-4a30-9730-4aca748bf30b,,,,36.3734751006,137.894729031,,
渋南転作研修センター,,,,fef66652-6aaf-4869-86d6-b455f88cb962,,,,36.385336373,137.889798507,,
部谷沢生活改善センター,,,,6723ef9d-7427-4f1b-9aba-64720d2cfb9e,,,,36.8332378795,138.423252012,,
中尾集落センター,,,,67f1587f-aae9-42d8-9344-06373ab20889,,,,36.916542,138.443186,,
星乃湯公会堂,,,,88d3e0c8-40a9-459e-a6f3-dd6f58b1064d,,,,36.739357,138.41606,,
本郷区民会館,,,,89f70a48-dba5-46ec-a82f-7a4d42cdef44,,,,36.7588730564,138.402744775,,
北部運動広場,,,,9fbe0453-63fe-43ba-95c6-058e9d09356c,,,,36.6875813277,138.365854871,,
木島平村体育館,,,,a4420a93-92d6-4b69-9073-41bc0030b32f,,,,36.857548,138.40626,,
ゆうゆう広場,,,,b1fdb603-3b8f-4f05-9123-afd123a1d5d4,,,,36.6810903674,138.372290525,,
寒沢集落センター,,,,b5e952c2-d03e-4743-b071-12e95e6e4206,,,,36.7226940182,138.403808042,,
旧山田保育園,,,,bd75e54b-4663-4ca8-97a4-5307f88ce3e9,,,,36.6862,138.370443,,
真湯生活改善センター,,,,c91143ce-1468-4fef-9f4a-5ce3b238a092,,,,36.924954873,138.44618158,,
こばと保育園,,,,d368a73b-b1ad-4f52-b94f-0afa8b6b130d,,,,36.949367373,138.437010727,,
角間公会堂,,,,d51e1672-0017-4bba-80ae-6b0d4bc41414,,,,36.7273064608,138.427823635,,
下高井農林高等学校,,,,dea97b39-711c-43c2-8eb6-24ddb4976759,,,,36.863319,138.407379,,
虫生活性化センター,,,,e07342e1-8453-4462-bdb7-b9a69c88807e,,,,36.9600554149,138.447533423,,
ほなみふれあいセンター,,,,e31ba33f-731f-476b-a044-b54cc6b07ca8,,,,36.731563,138.406439,,
山ノ内中学校,,,,e75fb41b-9b8d-41a2-9eb5-d032d3d71e36,,,,36.744056,138.415104,,
矢垂農業改善施設,,,,ec67179e-b165-4e1c-ae19-4791c039fa4e,,,,36.9443976495,138.436379935,,
乗廻公会堂,,,,f006cd6c-51de-42b6-8765-403bf9dd929c,,,,36.7849490368,138.44372662,,
穂波温泉区コミュニティーセンター,,,,f3919160-bfff-4d3e-b973-df0986586bad,,,,36.7356559533,138.419403711,,
糠千分館,,,,f4d5949f-07b7-4753-8f77-ff0908d7e658,,,,36.8179444319,138.437036317,,
総合会館,,,,f6c23a8e-adc7-44f9-8a07-369c0f50d1a2,,,,36.805879,138.201825,,
創作館,,,,f9910bb3-4cd8-47c2-9165-4a770844fa39,,,,36.8450110164,138.417280321,,
南小学校,,,,fbc87540-95dd-4264-9474-b9562cdc780d,,,,36.731835,138.409299,,
カリヨンホール,,,,fc247ecb-36f0-4fc5-8253-1a09827937cc,,,,36.6700227636,138.458750134,,
中須賀川多目的集会所,,,,fc89d246-27e8-4391-bcf1-abdef64d762d,,,,36.7951909386,138.437208266,,
野沢温泉中学校体育館,,,,500d51ff-98e8-4fd4-860b-0e796fb48a42,,,,36.921035,138.437152,,
千石生活改善センター,,,,52295729-1001-4397-8b97-11ee1cb245df,,,,36.8516209626,138.425349531,,
和栗生活改善センター,,,,6b802f6d-e976-42f5-aa97-ca08a78a8982,,,,36.86873594,138.414653965,,
富士里小学校,,,,7d1e758b-6d78-44b3-82bc-43c167934c25,,,,36.775351,138.203181,,
馬曲分館,,,,95284dbf-4dcf-4c05-9632-c9679fa46399,,,,36.8673482076,138.447311094,,
いこいの家,,,,a90bcdc0-9d93-4a0d-b66d-4a0ef9a1d062,,,,36.7863119839,138.208495085,,
上松川コミュティセンター,,,,b26d7b1c-9cbe-4ce1-b506-ac122fc37e7c,,,,36.6891735871,138.322115826,,
小川村保健センター,,,,cefcbcff-e90b-49fa-b7ae-9006a54c2b30,,,,36.6167667693,137.965171928,,
新田生活改善センター,,,,eddf2e68-fcec-470d-867b-d018ed60f4e4,,,,36.9199419962,138.44565084,,
下手集会所,,,,eea207c2-f2d3-434b-8fee-69a8ad75ab2c,,,,36.7502272923,138.409596507,,
高山村高齢者交流センター,,,,f1e8de47-2d78-40a1-a9f5-6f51c34b0741,,,,36.672433,138.422336,,
古海小学校,,,,f8d610fe-5b73-46f3-a30f-7106e143b5dc,,,,36.849011,138.246092,,
金倉公会堂,,,,fb5a85c1-b5e3-43fe-b5f8-df7efe4983ab,,,,36.7369605069,138.426571578,,
東小学校,,,,29412378-ed88-45f9-8d86-844686085eb8,,,,35.651881,138.583017,,
山梨学院大第３駐車場,,,,36a596ba-973c-4ed9-ad0f-702df368baa4,,,,35.6564806995,138.602523359,,
千代田小学校,,,,3996f802-5681-4f3e-a4cd-38ea80e48779,,,,35.712539,138.552462,,
千塚公園,,,,4dd48dd4-d619-4316-873a-840ad891660a,,,,35.68445811,138.54198452,,
県営能泉駐車場,,,,5978aab6-af92-48eb-977b-dd6d33352d17,,,,35.7382643195,138.565335334,,
甲府東高等学校,,,,6a85eede-0771-4518-a4f7-398cd65c9a26,,,,35.655908,138.59596,,
支援センターみさき,,,,72674d71-0889-4885-a111-04010a1f495a,,,,35.6744262499,138.563264232,,
荒川緑地（千秋橋上流右岸）,,,,74bf8574-5936-47f4-9013-ee26294c9b50,,,,35.6484320293,138.565339436,,
和田堀公園,,,,76ccd75a-90cd-45a3-8d24-bd1aa90fd0af,,,,35.69081051,138.56159786,,
特別養護老人ホーム「フランセーズ悠さかえ」,,,,842c772d-c1b0-486b-bb40-7d7d51046a65,,,,36.984127,138.528666,,
小川中学校体育館,,,,9bd868c0-9fae-46c0-b776-027186bf7303,,,,36.61664,137.974374,,
大津ケアセンター,,,,aa9928c4-b63a-4573-9406-352a6cd21c2c,,,,35.598370136,138.56441171,,
旧上九一色小学校,,,,b325c284-4f3b-4262-a782-05c469843c30,,,,35.530705,138.612946,,
かえで支援学校,,,,b3b24790-c4ef-4de1-94f2-7912523b82ad,,,,35.664629,138.587377,,
きぼうの家,,,,b535f1f2-0a2f-4892-b224-9a939ffeb30d,,,,35.690847,138.548352,,
甲府市貢川福祉センター,,,,b691b455-cd95-4050-bbb4-2f2c6caa1e0d,,,,35.647381,138.541632,,
月岡公民館,,,,bb94907e-e614-4f3a-92a0-e24b74d219b7,,,,36.974476,138.543494,,
牟礼西小学校,,,,c14e8dc4-44d3-4ce1-9a5f-4c450f3a75b8,,,,36.735411,138.212542,,
千塚小学校,,,,cee85fac-e541-4a24-bd00-b8b8a167cb7c,,,,35.680848,138.54102,,
飯綱福祉センター,,,,d246074b-fd96-4086-8d1f-7d6441b5ebab,,,,36.7550505644,138.235508696,,
小川中学校グラウンド,,,,d3ece8d1-be5f-4ecf-a647-68d203ac5a2a,,,,36.6168800339,137.974258916,,
上条中学校,,,,dfe05210-248a-4d26-aec7-c7495be41064,,,,35.628868,138.556648,,
上九一色出張所,,,,e74604d4-06c4-40ad-b248-4dabb48ea488,,,,35.5307789991,138.610062,,
原向公民館,,,,ee21b60d-c20e-4bed-ac3b-0508ae6ced5e,,,,36.948349,138.575084,,
天代公民館,,,,f6e820ae-fbac-4cd3-80fc-e373497a2c9e,,,,36.938378,138.572348,,
甲府市上九の湯ふれあいセンター,,,,fcf8edba-0922-45ad-a654-a984d9cb12a4,,,,35.5309104525,138.609918567,,
北野公民館,,,,fd0467a9-4dfd-4e50-a634-baddfec3038d,,,,36.9355987457,138.575781594,,
北西中学校,,,,28cd80b0-47a9-46c5-be76-cf85650afc14,,,,35.691902,138.529077,,
市自治研修センター,,,,6a721c74-b9d2-4b35-aadc-d6e5dcc71580,,,,35.656464,138.565869,,
住吉第３公園,,,,6aa3a54f-ea08-42b6-8afa-fe33e85b193c,,,,35.63855056,138.58441772,,
山梨大学附属小・中学校校庭,,,,73e904d3-6ad2-4b8d-9bdb-a21c528860c6,,,,35.679738,138.567073,,
緑が丘運動公園,,,,77499498-e44c-4854-9708-9d4933785048,,,,35.68138269,138.55902736,,
甲府浄化センター,,,,781244f2-2c2f-494a-9549-7c9f0670225f,,,,35.5966124006,138.560673438,,
甲府城西高等学校,,,,7c1b03b3-a3b6-4ada-99a7-950fff99af73,,,,35.666878,138.546353,,
中央公園,,,,7daad0fc-518c-4c95-afd3-6dc1d123504b,,,,35.65986015,138.56772458,,
柳在家公民館,,,,84027c89-0ec6-4873-a8e2-6cd0c10c3a48,,,,36.972138,138.584591,,
ダイタ駅前第一・第二駐車場,,,,8d85f752-0650-4fea-aecf-bf0bbdd198ea,,,,35.6661348497,138.566553204,,
青倉公民館,,,,96a5e768-7cba-4f1f-a0b4-9ab2cda0ca34,,,,36.9901505492,138.564242378,,
春光園,,,,a151204f-8e44-4efa-94d8-a3806ebc164e,,,,35.631358,138.595648,,
倉井コミュニティ消防センター,,,,d3472d7e-edbf-430c-baeb-9f6a107487fd,,,,36.7560600854,138.257929826,,
山城小学校,,,,e7084e45-ceef-4e7f-91f5-a7d0281fc6f7,,,,35.626357,138.578047,,
ＮＡＣ湯村,,,,e8978fac-a825-4deb-86b1-2b6e1cffd058,,,,35.6834029991,138.546769,,
北中学校,,,,e96c4b8d-dbaa-460e-bffd-caff1bd79a13,,,,35.679488,138.556296,,
牟礼Ｂ＆Ｇ海洋センター,,,,f03e4eac-7335-4708-b023-3dc1f4657b12,,,,36.742018049,138.23831881,,
新紺屋小学校,,,,f32a7224-2710-4f06-aaf7-09cf98156885,,,,35.672211,138.569434,,
旧穴切小学校,,,,ff3a75c7-e28a-43ea-8a3c-6a313dbe5e6e,,,,35.6631608619,138.560395618,,
荒川緑地（千秋橋上流左岸）,,,,ff74265d-c42f-4cd3-8b34-64237217a5a9,,,,35.6485737402,138.566149571,,
第四保育園,,,,8cfb5951-c1d7-4cb9-9d1c-ca70e406dcee,,,,35.48674,138.79203,,
大月市民会館,,,,a101a631-acee-4316-963b-fe43c5bc6f2b,,,,35.6158675381,138.949188379,,
浅間町会館,,,,a8acdf7b-0525-4a5d-9fa9-104a5370c66d,,,,35.4992389991,138.797271,,
オーチャードヴィレッジ・フフ,,,,beac7472-2a76-40c2-8f17-e97b214b9de8,,,,35.7584113966,138.686053594,,
寿町会館,,,,c670bb34-7f4f-4b8e-ac5d-a7a456f3f6da,,,,35.5135889991,138.829035,,
初狩小学校,,,,d490939a-be14-4cbe-8940-4df59cde6e59,,,,35.596757,138.878518,,
日川高校体育館,,,,ee5bdbe2-4e6b-4a8c-8ba6-8356940da7b4,,,,35.663466,138.683398,,
雇用促進住宅広場,,,,f5482b82-f83a-4e90-ac9c-e6af67441aa7,,,,35.7245567639,138.429509934,,
畳屋上駐車場,,,,fbc60a79-4d80-47cd-bd37-7d424714f0be,,,,35.5589892553,138.910963139,,
南部市民センター,,,,2f192f05-5ac1-458a-b72d-e8c38f50d79f,,,,35.614181,138.57988,,
加納岩公民館,,,,6fbececf-b271-46f0-9a1d-ff0aa012963a,,,,35.682878,138.688108,,
都留文科大学グラウンド,,,,6fe034dc-dd0b-43b4-9777-5896e9676999,,,,35.5377141094,138.89668471,,
大月東中学校,,,,783f31ff-9d8c-4e7d-a0ca-fc6487b85322,,,,35.61059,138.935567,,
松山会館,,,,7d9b61e8-4552-4844-a2ae-cab3e54a860a,,,,35.4850479991,138.784556,,
富士散策公園,,,,827b3de1-fc0a-4c24-92c7-2f5ef6a678d6,,,,35.455362,138.805385,,
牧丘町コミュニティセンター,,,,93e8d4dc-99a7-4504-9d1d-70f04da81dcf,,,,35.7401745836,138.714347927,,
谷村第二小学校屋体,,,,96af382d-ff79-4c93-b66f-b9dd8eb9591e,,,,35.551458,138.925987,,
元富士精工広場,,,,9ea0a65e-13a6-45d0-81ae-5d8a6b010dd3,,,,35.5393666072,138.886859209,,